{"filiali":[{"lat":45.68688,"nome":"ALBANO SANT'ALESSANDRO","banca":"BPCI","class":"it.iap.google.maps.geocoder.Filiale","indirizzo":"Via Aldo Moro 8\/10, ALBANO SANT`ALESSANDRO, BG (LOMBARDIA), Italy","lng":9.767603,"~unique-id~":"0"},{"lat":44.903133,"nome":"ASTI SEDE","banca":"BPCI","class":"it.iap.google.maps.geocoder.Filiale","indirizzo":"Piazza 1 Maggio 8, ASTI, AT (PIEMONTE), Italy","lng":8.213886,"~unique-id~":"1"},{"lat":45.565445,"nome":"BIELLA SEDE","banca":"BPCI","class":"it.iap.google.maps.geocoder.Filiale","indirizzo":"Via 20 Settembre 10, BIELLA, BI (PIEMONTE), Italy","lng":8.05753,"~unique-id~":"2"},{"lat":45.568756,"nome":"COSSATO","banca":"BPCI","class":"it.iap.google.maps.geocoder.Filiale","indirizzo":"Via Lamarmora 9, COSSATO, BI (PIEMONTE), Italy","lng":8.18018,"~unique-id~":"3"},{"lat":45.135025,"nome":"CASALE MONFERRATO","banca":"BPCI","class":"it.iap.google.maps.geocoder.Filiale","indirizzo":"Piazza San Francesco 10, CASALE MONFERRATO, AL (PIEMONTE), Italy","lng":8.449272,"~unique-id~":"4"},{"lat":45.037395,"nome":"VALENZA","banca":"BPCI","class":"it.iap.google.maps.geocoder.Filiale","indirizzo":"Via Dante 68, VALENZA, AL (PIEMONTE), Italy","lng":8.524417,"~unique-id~":"5"},{"lat":43.620018,"nome":"ANCONA SEDE","banca":"BPCI","class":"it.iap.google.maps.geocoder.Filiale","indirizzo":"Via Della Loggia 3, ANCONA, AN (MARCHE), Italy","lng":13.509919,"~unique-id~":"6"},{"lat":45.696384,"nome":"BERGAMO SEDE","banca":"BPCI","class":"it.iap.google.maps.geocoder.Filiale","indirizzo":"Viale Vittorio Emanuele Ii 2, BERGAMO, BG (LOMBARDIA), Italy","lng":9.668276,"~unique-id~":"7"},{"lat":45.780815,"nome":"CENE","banca":"BPCI","class":"it.iap.google.maps.geocoder.Filiale","indirizzo":"Via Vittorio Veneto 1, CENE, BG (LOMBARDIA), Italy","lng":9.825895,"~unique-id~":"8"},{"lat":45.68985,"nome":"CURNO","banca":"BPCI","class":"it.iap.google.maps.geocoder.Filiale","indirizzo":"Via Terzi Di Sant'Agata 2\/4, CURNO, BG (LOMBARDIA), Italy","lng":9.608963,"~unique-id~":"9"},{"lat":45.650017,"nome":"DALMINE","banca":"BPCI","class":"it.iap.google.maps.geocoder.Filiale","indirizzo":"Viale Betelli 32\/34, DALMINE, BG (LOMBARDIA), Italy","lng":9.602443,"~unique-id~":"10"},{"lat":45.63659,"nome":"GRUMELLO DEL MONTE","banca":"BPCI","class":"it.iap.google.maps.geocoder.Filiale","indirizzo":"Via Roma 95, GRUMELLO DEL MONTE, BG (LOMBARDIA), Italy","lng":9.877022,"~unique-id~":"11"},{"lat":45.744133,"nome":"NEMBRO","banca":"BPCI","class":"it.iap.google.maps.geocoder.Filiale","indirizzo":"Via Roma 14, NEMBRO, BG (LOMBARDIA), Italy","lng":9.760142,"~unique-id~":"12"},{"lat":45.704006,"nome":"SERIATE","banca":"BPCI","class":"it.iap.google.maps.geocoder.Filiale","indirizzo":"Piazza Giovanni Xxiii 6\/A, SERIATE, BG (LOMBARDIA), Italy","lng":9.720245,"~unique-id~":"13"},{"lat":45.523888,"nome":"TREVIGLIO","banca":"BPCI","class":"it.iap.google.maps.geocoder.Filiale","indirizzo":"Piazza Mentana 1\/A, TREVIGLIO, BG (LOMBARDIA), Italy","lng":9.594802,"~unique-id~":"14"},{"lat":44.493526,"nome":"BOLOGNA - MALPIGHI","banca":"BPCI","class":"it.iap.google.maps.geocoder.Filiale","indirizzo":"Piazza Malpighi 16, BOLOGNA, BO (EMILIA ROMAGNA), Italy","lng":11.33601,"~unique-id~":"15"},{"lat":44.480938,"nome":"BOLOGNA - MURRI","banca":"BPCI","class":"it.iap.google.maps.geocoder.Filiale","indirizzo":"Via Augusto Murri 77, BOLOGNA, BO (EMILIA ROMAGNA), Italy","lng":11.362326,"~unique-id~":"16"},{"lat":44.505817,"nome":"BOLOGNA SEDE","banca":"BPCI","class":"it.iap.google.maps.geocoder.Filiale","indirizzo":"Viale Della Repubblica 25\/31, BOLOGNA, BO (EMILIA ROMAGNA), Italy","lng":11.361959,"~unique-id~":"17"},{"lat":44.353695,"nome":"IMOLA","banca":"BPCI","class":"it.iap.google.maps.geocoder.Filiale","indirizzo":"Piazza Caduti 5\/6, IMOLA, BO (EMILIA ROMAGNA), Italy","lng":11.71431,"~unique-id~":"18"},{"lat":44.46885,"nome":"SAN LAZZARO DI SAVENA","banca":"BPCI","class":"it.iap.google.maps.geocoder.Filiale","indirizzo":"Via Emilia 208\/210, SAN LAZZARO DI SAVENA, BO (EMILIA ROMAGNA), Italy","lng":11.413121,"~unique-id~":"19"},{"lat":45.52967,"nome":"BRESCIA - ORZINUOVI","banca":"BPCI","class":"it.iap.google.maps.geocoder.Filiale","indirizzo":"Via Orzinuovi 46\/A, BRESCIA, BS (LOMBARDIA), Italy","lng":10.18958,"~unique-id~":"20"},{"lat":45.546833,"nome":"BRESCIA - TRENTO","banca":"BPCI","class":"it.iap.google.maps.geocoder.Filiale","indirizzo":"Via Trento 3, BRESCIA, BS (LOMBARDIA), Italy","lng":10.220571,"~unique-id~":"21"},{"lat":45.573036,"nome":"BRESCIA - TRIUMPLINA","banca":"BPCI","class":"it.iap.google.maps.geocoder.Filiale","indirizzo":"Via Triumplina 125, BRESCIA, BS (LOMBARDIA), Italy","lng":10.231315,"~unique-id~":"22"},{"lat":45.533653,"nome":"BRESCIA SEDE","banca":"BPCI","class":"it.iap.google.maps.geocoder.Filiale","indirizzo":"Via Vittorio Emanuele Ii 60, BRESCIA, BS (LOMBARDIA), Italy","lng":10.220573,"~unique-id~":"23"},{"lat":45.48929,"nome":"CASTEL MELLA","banca":"BPCI","class":"it.iap.google.maps.geocoder.Filiale","indirizzo":"Via Quinzano 80\/A, CASTEL MELLA, BS (LOMBARDIA), Italy","lng":10.153713,"~unique-id~":"24"},{"lat":45.58268,"nome":"GUSSAGO","banca":"BPCI","class":"it.iap.google.maps.geocoder.Filiale","indirizzo":"Viale Italia 1, GUSSAGO, BS (LOMBARDIA), Italy","lng":10.158051,"~unique-id~":"25"},{"lat":45.299667,"nome":"MANERBIO","banca":"BPCI","class":"it.iap.google.maps.geocoder.Filiale","indirizzo":"Via Roma 18\/20, MANERBIO, BS (LOMBARDIA), Italy","lng":10.206711,"~unique-id~":"26"},{"lat":45.41083,"nome":"MONTICHIARI","banca":"BPCI","class":"it.iap.google.maps.geocoder.Filiale","indirizzo":"Via Trieste 68, MONTICHIARI, BS (LOMBARDIA), Italy","lng":10.394976,"~unique-id~":"27"},{"lat":45.511642,"nome":"REZZATO","banca":"BPCI","class":"it.iap.google.maps.geocoder.Filiale","indirizzo":"Via Garibaldi 1\/3, REZZATO, BS (LOMBARDIA), Italy","lng":10.313554,"~unique-id~":"28"},{"lat":45.56652,"nome":"ROVATO","banca":"BPCI","class":"it.iap.google.maps.geocoder.Filiale","indirizzo":"Corso Bonomelli 40\/42, ROVATO, BS (LOMBARDIA), Italy","lng":9.999448,"~unique-id~":"29"},{"lat":45.649094,"nome":"SAREZZO","banca":"BPCI","class":"it.iap.google.maps.geocoder.Filiale","indirizzo":"Via Antonini 26, SAREZZO, BS (LOMBARDIA), Italy","lng":10.202551,"~unique-id~":"30"},{"lat":45.766117,"nome":"CASNATE CON BERNATE","banca":"BPCI","class":"it.iap.google.maps.geocoder.Filiale","indirizzo":"Via Strada Statale dei Giovi 5, CASNATE CON BERNATE, CO (LOMBARDIA), Italy","lng":9.058213,"~unique-id~":"31"},{"lat":45.70127,"nome":"CERMENATE","banca":"BPCI","class":"it.iap.google.maps.geocoder.Filiale","indirizzo":"Via Matteotti 29\/31, CERMENATE, CO (LOMBARDIA), Italy","lng":9.077954,"~unique-id~":"32"},{"lat":45.803833,"nome":"COMO - MORO","banca":"BPCI","class":"it.iap.google.maps.geocoder.Filiale","indirizzo":"Via Aldo Moro 46\/48, COMO, CO (LOMBARDIA), Italy","lng":9.09085,"~unique-id~":"33"},{"lat":45.79682,"nome":"COMO SEDE","banca":"BPCI","class":"it.iap.google.maps.geocoder.Filiale","indirizzo":"Via Cattaneo 3, COMO, CO (LOMBARDIA), Italy","lng":9.16806,"~unique-id~":"34"},{"lat":45.809395,"nome":"ERBA","banca":"BPCI","class":"it.iap.google.maps.geocoder.Filiale","indirizzo":"Via Mazzini 12, ERBA, CO (LOMBARDIA), Italy","lng":9.232263,"~unique-id~":"35"},{"lat":45.771244,"nome":"LURATE CACCIVIO","banca":"BPCI","class":"it.iap.google.maps.geocoder.Filiale","indirizzo":"Via Varesina 88, LURATE CACCIVIO, CO (LOMBARDIA), Italy","lng":8.997866,"~unique-id~":"36"},{"lat":45.78368,"nome":"OLGIATE COMASCO","banca":"BPCI","class":"it.iap.google.maps.geocoder.Filiale","indirizzo":"Via Roma 39, OLGIATE COMASCO, CO (LOMBARDIA), Italy","lng":8.967015,"~unique-id~":"37"},{"lat":45.131905,"nome":"CREMONA SEDE","banca":"BPCI","class":"it.iap.google.maps.geocoder.Filiale","indirizzo":"Via Giordano 9\/21, CREMONA, CR (LOMBARDIA), Italy","lng":10.016624,"~unique-id~":"38"},{"lat":44.22239,"nome":"FORLI' SEDE","banca":"BPCI","class":"it.iap.google.maps.geocoder.Filiale","indirizzo":"Via Lazzaretto 11\/19, FORLI', FC (EMILIA ROMAGNA), Italy","lng":12.043429,"~unique-id~":"39"},{"lat":43.767006,"nome":"FIRENZE SEDE","banca":"BPCI","class":"it.iap.google.maps.geocoder.Filiale","indirizzo":"Corso Dei Tintori 10, FIRENZE, FI (TOSCANA), Italy","lng":11.261715,"~unique-id~":"40"},{"lat":45.756424,"nome":"BULCIAGO","banca":"BPCI","class":"it.iap.google.maps.geocoder.Filiale","indirizzo":"Via Don Canali 33\/35, BULCIAGO, LC (LOMBARDIA), Italy","lng":9.288845,"~unique-id~":"41"},{"lat":45.848915,"nome":"LECCO SEDE","banca":"BPCI","class":"it.iap.google.maps.geocoder.Filiale","indirizzo":"Via Amendola 6, LECCO, LC (LOMBARDIA), Italy","lng":9.393908,"~unique-id~":"42"},{"lat":45.16119,"nome":"CODOGNO SEDE","banca":"BPCI","class":"it.iap.google.maps.geocoder.Filiale","indirizzo":"Via Vittorio Emanuele 35, CODOGNO, LO (LOMBARDIA), Italy","lng":9.703143,"~unique-id~":"43"},{"lat":45.314495,"nome":"LODI SEDE","banca":"BPCI","class":"it.iap.google.maps.geocoder.Filiale","indirizzo":"Via Incoronata 12, LODI, LO (LOMBARDIA), Italy","lng":9.502302,"~unique-id~":"44"},{"lat":45.300835,"nome":"LODI VECCHIO","banca":"BPCI","class":"it.iap.google.maps.geocoder.Filiale","indirizzo":"Piazza Vittorio Emanuele 48, LODI VECCHIO, LO (LOMBARDIA), Italy","lng":9.416597,"~unique-id~":"45"},{"lat":45.23888,"nome":"SANT'ANGELO LODIGIANO","banca":"BPCI","class":"it.iap.google.maps.geocoder.Filiale","indirizzo":"Piazza Liberta' 10, SANT'ANGELO LODIGIANO, LO (LOMBARDIA), Italy","lng":9.408695,"~unique-id~":"46"},{"lat":45.62584,"nome":"ARCORE","banca":"BPCI","class":"it.iap.google.maps.geocoder.Filiale","indirizzo":"Via Casati 45, ARCORE, MI (LOMBARDIA), Italy","lng":9.324493,"~unique-id~":"47"},{"lat":45.623993,"nome":"BINZAGO (CESANO MADERNO)","banca":"BPCI","class":"it.iap.google.maps.geocoder.Filiale","indirizzo":"Via Conciliazione 29, CESANO MADERNO, MI (LOMBARDIA), Italy","lng":9.147787,"~unique-id~":"48"},{"lat":45.537827,"nome":"BRESSO","banca":"BPCI","class":"it.iap.google.maps.geocoder.Filiale","indirizzo":"Via Roma 16, BRESSO, MI (LOMBARDIA), Italy","lng":9.187842,"~unique-id~":"49"},{"lat":45.671925,"nome":"BRUGAZZO (GIUSSANO)","banca":"BPCI","class":"it.iap.google.maps.geocoder.Filiale","indirizzo":"Via 4 Novembre 80, GIUSSANO, MI (LOMBARDIA), Italy","lng":9.203148,"~unique-id~":"50"},{"lat":45.55148,"nome":"BRUGHERIO","banca":"BPCI","class":"it.iap.google.maps.geocoder.Filiale","indirizzo":"Via De Gasperi 58\/62\/64, BRUGHERIO, MI (LOMBARDIA), Italy","lng":9.296801,"~unique-id~":"51"},{"lat":45.572033,"nome":"CANEGRATE","banca":"BPCI","class":"it.iap.google.maps.geocoder.Filiale","indirizzo":"Via Manzoni 48\/A, CANEGRATE, MI (LOMBARDIA), Italy","lng":8.926053,"~unique-id~":"52"},{"lat":45.49894,"nome":"CASSINA DE` PECCHI","banca":"BPCI","class":"it.iap.google.maps.geocoder.Filiale","indirizzo":"Via Matteotti 2\/4, CASSINA DE` PECCHI, MI (LOMBARDIA), Italy","lng":9.424669,"~unique-id~":"53"},{"lat":45.554333,"nome":"CINISELLO BALSAMO","banca":"BPCI","class":"it.iap.google.maps.geocoder.Filiale","indirizzo":"Via Liberta' 68, CINISELLO BALSAMO, MI (LOMBARDIA), Italy","lng":9.216234,"~unique-id~":"54"},{"lat":45.63138,"nome":"COLNAGO (CORNATE D`ADDA)","banca":"BPCI","class":"it.iap.google.maps.geocoder.Filiale","indirizzo":"Via Silvio Pellico 10, CORNATE D`ADDA, MI (LOMBARDIA), Italy","lng":9.471963,"~unique-id~":"55"},{"lat":45.52864,"nome":"COLOGNO MONZESE","banca":"BPCI","class":"it.iap.google.maps.geocoder.Filiale","indirizzo":"Via Indipendenza 32, COLOGNO MONZESE, MI (LOMBARDIA), Italy","lng":9.277251,"~unique-id~":"56"},{"lat":45.467194,"nome":"CORBETTA","banca":"BPCI","class":"it.iap.google.maps.geocoder.Filiale","indirizzo":"Corso Garibaldi 14, CORBETTA, MI (LOMBARDIA), Italy","lng":8.920388,"~unique-id~":"57"},{"lat":45.501663,"nome":"CORNAREDO","banca":"BPCI","class":"it.iap.google.maps.geocoder.Filiale","indirizzo":"Piazza Liberta' 62, CORNAREDO, MI (LOMBARDIA), Italy","lng":9.026377,"~unique-id~":"58"},{"lat":45.647137,"nome":"CORNATE D`ADDA","banca":"BPCI","class":"it.iap.google.maps.geocoder.Filiale","indirizzo":"Via Circonvallazione 10\/12\/14, CORNATE D`ADDA, MI (LOMBARDIA), Italy","lng":9.463793,"~unique-id~":"59"},{"lat":45.431976,"nome":"CORSICO - CAVOUR","banca":"BPCI","class":"it.iap.google.maps.geocoder.Filiale","indirizzo":"Via Cavour 45, CORSICO, MI (LOMBARDIA), Italy","lng":9.109405,"~unique-id~":"60"},{"lat":45.44001,"nome":"CORSICO - LIBERAZIONE","banca":"BPCI","class":"it.iap.google.maps.geocoder.Filiale","indirizzo":"Viale Liberazione 26\/28, CORSICO, MI (LOMBARDIA), Italy","lng":9.104173,"~unique-id~":"61"},{"lat":45.57442,"nome":"GARBAGNATE MILANESE","banca":"BPCI","class":"it.iap.google.maps.geocoder.Filiale","indirizzo":"Via Milano 110\/112, GARBAGNATE MILANESE, MI (LOMBARDIA), Italy","lng":9.081306,"~unique-id~":"62"},{"lat":45.570545,"nome":"LAINATE","banca":"BPCI","class":"it.iap.google.maps.geocoder.Filiale","indirizzo":"Via Garzoli 17, LAINATE, MI (LOMBARDIA), Italy","lng":9.027192,"~unique-id~":"63"},{"lat":45.57708,"nome":"LEGNANO - SEMPIONE","banca":"BPCI","class":"it.iap.google.maps.geocoder.Filiale","indirizzo":"Via Verdi 1, LEGNANO, MI (LOMBARDIA), Italy","lng":8.939027,"~unique-id~":"64"},{"lat":45.59104,"nome":"LEGNANO - VIA NOVARA","banca":"BPCI","class":"it.iap.google.maps.geocoder.Filiale","indirizzo":"Via Novara 8, LEGNANO, MI (LOMBARDIA), Italy","lng":8.901214,"~unique-id~":"65"},{"lat":45.60667,"nome":"LISSONE - CAPPUCCINA","banca":"BPCI","class":"it.iap.google.maps.geocoder.Filiale","indirizzo":"Via Cappuccina 22, LISSONE, MI (LOMBARDIA), Italy","lng":9.238959,"~unique-id~":"66"},{"lat":45.610317,"nome":"LISSONE - SAN CARLO","banca":"BPCI","class":"it.iap.google.maps.geocoder.Filiale","indirizzo":"Via San Carlo 4, LISSONE, MI (LOMBARDIA), Italy","lng":9.238841,"~unique-id~":"67"},{"lat":45.49878,"nome":"MELZO","banca":"BPCI","class":"it.iap.google.maps.geocoder.Filiale","indirizzo":"Piazza Repubblica 10, MELZO, MI (LOMBARDIA), Italy","lng":9.423978,"~unique-id~":"68"},{"lat":45.51726,"nome":"MILANO - ASTESANI","banca":"BPCI","class":"it.iap.google.maps.geocoder.Filiale","indirizzo":"Via Astesani 16, MILANO, MI (LOMBARDIA), Italy","lng":9.171343,"~unique-id~":"69"},{"lat":45.45067,"nome":"MILANO - BLIGNY","banca":"BPCI","class":"it.iap.google.maps.geocoder.Filiale","indirizzo":"Via Salasco 31, MILANO, MI (LOMBARDIA), Italy","lng":9.196499,"~unique-id~":"70"},{"lat":45.46398,"nome":"MILANO - BOCCHETTO","banca":"BPCI","class":"it.iap.google.maps.geocoder.Filiale","indirizzo":"Via Bocchetto 13, MILANO, MI (LOMBARDIA), Italy","lng":9.184293,"~unique-id~":"71"},{"lat":45.4658,"nome":"MILANO - BORGOGNA","banca":"BPCI","class":"it.iap.google.maps.geocoder.Filiale","indirizzo":"Via Borgogna 2\/4, MILANO, MI (LOMBARDIA), Italy","lng":9.198484,"~unique-id~":"72"},{"lat":45.469646,"nome":"MILANO - BUONARROTI","banca":"BPCI","class":"it.iap.google.maps.geocoder.Filiale","indirizzo":"Via Buonarroti 22, MILANO, MI (LOMBARDIA), Italy","lng":9.15532,"~unique-id~":"73"},{"lat":45.467842,"nome":"MILANO - CADORNA","banca":"BPCI","class":"it.iap.google.maps.geocoder.Filiale","indirizzo":"Via Boccaccio 2, MILANO, MI (LOMBARDIA), Italy","lng":9.175407,"~unique-id~":"74"},{"lat":45.495743,"nome":"MILANO - CAGLIERO","banca":"BPCI","class":"it.iap.google.maps.geocoder.Filiale","indirizzo":"Via Eugenio Pellini 1, MILANO, MI (LOMBARDIA), Italy","lng":9.203852,"~unique-id~":"75"},{"lat":45.47969,"nome":"MILANO - CANONICA","banca":"BPCI","class":"it.iap.google.maps.geocoder.Filiale","indirizzo":"Via Canonica 54, MILANO, MI (LOMBARDIA), Italy","lng":9.172659,"~unique-id~":"76"},{"lat":45.455444,"nome":"MILANO - CONI ZUGNA","banca":"BPCI","class":"it.iap.google.maps.geocoder.Filiale","indirizzo":"Viale Coni Zugna 71, MILANO, MI (LOMBARDIA), Italy","lng":9.171988,"~unique-id~":"77"},{"lat":45.462387,"nome":"MILANO - CORSICA","banca":"BPCI","class":"it.iap.google.maps.geocoder.Filiale","indirizzo":"Viale Corsica 55, MILANO, MI (LOMBARDIA), Italy","lng":9.231239,"~unique-id~":"78"},{"lat":45.44155,"nome":"MILANO - CORSO LODI","banca":"BPCI","class":"it.iap.google.maps.geocoder.Filiale","indirizzo":"Corso Lodi 111, MILANO, MI (LOMBARDIA), Italy","lng":9.221188,"~unique-id~":"79"},{"lat":45.45803,"nome":"MILANO - DE AGOSTINI","banca":"BPCI","class":"it.iap.google.maps.geocoder.Filiale","indirizzo":"Piazzale De Agostini 8, MILANO, MI (LOMBARDIA), Italy","lng":9.155836,"~unique-id~":"80"},{"lat":45.471485,"nome":"MILANO - DOLCI","banca":"BPCI","class":"it.iap.google.maps.geocoder.Filiale","indirizzo":"Via Carlo Dolci 1, MILANO, MI (LOMBARDIA), Italy","lng":9.143846,"~unique-id~":"81"},{"lat":45.48869,"nome":"MILANO - FIRENZE","banca":"BPCI","class":"it.iap.google.maps.geocoder.Filiale","indirizzo":"Piazza Firenze 14, MILANO, MI (LOMBARDIA), Italy","lng":9.155624,"~unique-id~":"82"},{"lat":45.449028,"nome":"MILANO - GELSOMINI","banca":"BPCI","class":"it.iap.google.maps.geocoder.Filiale","indirizzo":"Largo Gelsomini 12, MILANO, MI (LOMBARDIA), Italy","lng":9.136727,"~unique-id~":"83"},{"lat":45.448868,"nome":"MILANO - GENTILINO","banca":"BPCI","class":"it.iap.google.maps.geocoder.Filiale","indirizzo":"Via Gentilino 4, MILANO, MI (LOMBARDIA), Italy","lng":9.180011,"~unique-id~":"84"},{"lat":45.5183,"nome":"MILANO - GRASSI","banca":"BPCI","class":"it.iap.google.maps.geocoder.Filiale","indirizzo":"Via G. B. Grassi 89, MILANO, MI (LOMBARDIA), Italy","lng":9.11903,"~unique-id~":"85"},{"lat":45.46762,"nome":"MILANO - INDIPENDENZA","banca":"BPCI","class":"it.iap.google.maps.geocoder.Filiale","indirizzo":"Corso Indipendenza 14, MILANO, MI (LOMBARDIA), Italy","lng":9.213579,"~unique-id~":"86"},{"lat":45.443077,"nome":"MILANO - LA SPEZIA","banca":"BPCI","class":"it.iap.google.maps.geocoder.Filiale","indirizzo":"Via La Spezia 1, MILANO, MI (LOMBARDIA), Italy","lng":9.172715,"~unique-id~":"87"},{"lat":45.483284,"nome":"MILANO - LOMBARDIA","banca":"BPCI","class":"it.iap.google.maps.geocoder.Filiale","indirizzo":"Via Lomonaco 15, MILANO, MI (LOMBARDIA), Italy","lng":9.223493,"~unique-id~":"88"},{"lat":45.46601,"nome":"MILANO - MAGENTA","banca":"BPCI","class":"it.iap.google.maps.geocoder.Filiale","indirizzo":"Corso Magenta 87, MILANO, MI (LOMBARDIA), Italy","lng":9.166244,"~unique-id~":"89"},{"lat":45.49625,"nome":"MILANO - MARCHE","banca":"BPCI","class":"it.iap.google.maps.geocoder.Filiale","indirizzo":"Viale Marche 56, MILANO, MI (LOMBARDIA), Italy","lng":9.192387,"~unique-id~":"90"},{"lat":45.496223,"nome":"MILANO - NIGRA","banca":"BPCI","class":"it.iap.google.maps.geocoder.Filiale","indirizzo":"Piazzale Nigra 1, MILANO, MI (LOMBARDIA), Italy","lng":9.171097,"~unique-id~":"91"},{"lat":45.460648,"nome":"MILANO - OLONA","banca":"BPCI","class":"it.iap.google.maps.geocoder.Filiale","indirizzo":"Via Olona 11, MILANO, MI (LOMBARDIA), Italy","lng":9.172111,"~unique-id~":"92"},{"lat":45.48889,"nome":"MILANO - PADOVA","banca":"BPCI","class":"it.iap.google.maps.geocoder.Filiale","indirizzo":"Via Padova 21, MILANO, MI (LOMBARDIA), Italy","lng":9.220388,"~unique-id~":"93"},{"lat":45.495964,"nome":"MILANO - PADOVA 97","banca":"BPCI","class":"it.iap.google.maps.geocoder.Filiale","indirizzo":"Via Padova 97, MILANO, MI (LOMBARDIA), Italy","lng":9.22971,"~unique-id~":"94"},{"lat":45.48562,"nome":"MILANO - PERGOLESI","banca":"BPCI","class":"it.iap.google.maps.geocoder.Filiale","indirizzo":"Via Pergolesi 25, MILANO, MI (LOMBARDIA), Italy","lng":9.208969,"~unique-id~":"95"},{"lat":45.470596,"nome":"MILANO - PIAVE","banca":"BPCI","class":"it.iap.google.maps.geocoder.Filiale","indirizzo":"Viale Piave 15, MILANO, MI (LOMBARDIA), Italy","lng":9.206599,"~unique-id~":"96"},{"lat":45.48042,"nome":"MILANO - PIOLA","banca":"BPCI","class":"it.iap.google.maps.geocoder.Filiale","indirizzo":"Piazzale Piola 8, MILANO, MI (LOMBARDIA), Italy","lng":9.224418,"~unique-id~":"97"},{"lat":45.456688,"nome":"MILANO - PORTA ROMANA","banca":"BPCI","class":"it.iap.google.maps.geocoder.Filiale","indirizzo":"Corso Di Porta Romana 63, MILANO, MI (LOMBARDIA), Italy","lng":9.194794,"~unique-id~":"98"},{"lat":45.45983,"nome":"MILANO - PORTA TICINESE","banca":"BPCI","class":"it.iap.google.maps.geocoder.Filiale","indirizzo":"Corso Di Porta Ticinese 1, MILANO, MI (LOMBARDIA), Italy","lng":9.18129,"~unique-id~":"99"},{"lat":45.488174,"nome":"MILANO - ROSELLINI","banca":"BPCI","class":"it.iap.google.maps.geocoder.Filiale","indirizzo":"Via Rosellini 2, MILANO, MI (LOMBARDIA), Italy","lng":9.193727,"~unique-id~":"100"},{"lat":45.46812,"nome":"MILANO - SANZIO","banca":"BPCI","class":"it.iap.google.maps.geocoder.Filiale","indirizzo":"Via Sanzio 22, MILANO, MI (LOMBARDIA), Italy","lng":9.151825,"~unique-id~":"101"},{"lat":45.476807,"nome":"MILANO - SECCHI","banca":"BPCI","class":"it.iap.google.maps.geocoder.Filiale","indirizzo":"Via Secchi 2, MILANO, MI (LOMBARDIA), Italy","lng":9.207851,"~unique-id~":"102"},{"lat":45.482815,"nome":"MILANO - SETTEMBRINI","banca":"BPCI","class":"it.iap.google.maps.geocoder.Filiale","indirizzo":"Via Vitruvio 38, MILANO, MI (LOMBARDIA), Italy","lng":9.205818,"~unique-id~":"103"},{"lat":45.456005,"nome":"MILANO - SOLARI","banca":"BPCI","class":"it.iap.google.maps.geocoder.Filiale","indirizzo":"Via Solari 19, MILANO, MI (LOMBARDIA), Italy","lng":9.165244,"~unique-id~":"104"},{"lat":45.45691,"nome":"MILANO - SOLARI 3","banca":"BPCI","class":"it.iap.google.maps.geocoder.Filiale","indirizzo":"Via Solari 3, MILANO, MI (LOMBARDIA), Italy","lng":9.168038,"~unique-id~":"105"},{"lat":45.458473,"nome":"MILANO - SPARTACO","banca":"BPCI","class":"it.iap.google.maps.geocoder.Filiale","indirizzo":"Via Spartaco 12, MILANO, MI (LOMBARDIA), Italy","lng":9.210736,"~unique-id~":"106"},{"lat":45.468525,"nome":"MILANO - TRICOLORE","banca":"BPCI","class":"it.iap.google.maps.geocoder.Filiale","indirizzo":"Via Pindemonte 2, MILANO, MI (LOMBARDIA), Italy","lng":9.206344,"~unique-id~":"107"},{"lat":45.46999,"nome":"MILANO - VIALE ROMAGNA","banca":"BPCI","class":"it.iap.google.maps.geocoder.Filiale","indirizzo":"Viale Romagna 14, MILANO, MI (LOMBARDIA), Italy","lng":9.224022,"~unique-id~":"108"},{"lat":45.470795,"nome":"MILANO - ZANDONAI","banca":"BPCI","class":"it.iap.google.maps.geocoder.Filiale","indirizzo":"Largo Zandonai 3, MILANO, MI (LOMBARDIA), Italy","lng":9.160141,"~unique-id~":"109"},{"lat":45.477215,"nome":"MILANO SEDE","banca":"BPCI","class":"it.iap.google.maps.geocoder.Filiale","indirizzo":"Via Della Moscova 33, MILANO, MI (LOMBARDIA), Italy","lng":9.187247,"~unique-id~":"110"},{"lat":45.64945,"nome":"MONZA - MANZONI","banca":"BPCI","class":"it.iap.google.maps.geocoder.Filiale","indirizzo":"Via Manzoni 22\/30, MONZA, MI (LOMBARDIA), Italy","lng":9.306075,"~unique-id~":"111"},{"lat":45.581184,"nome":"MONZA - ROTA","banca":"BPCI","class":"it.iap.google.maps.geocoder.Filiale","indirizzo":"Via Carlo Rota 50, MONZA, MI (LOMBARDIA), Italy","lng":9.289923,"~unique-id~":"112"},{"lat":45.581318,"nome":"MONZA - STUCCHI","banca":"BPCI","class":"it.iap.google.maps.geocoder.Filiale","indirizzo":"Viale G. B. Stucchi 110, MONZA, MI (LOMBARDIA), Italy","lng":9.309258,"~unique-id~":"113"},{"lat":45.374413,"nome":"OPERA","banca":"BPCI","class":"it.iap.google.maps.geocoder.Filiale","indirizzo":"Via Diaz 2, OPERA, MI (LOMBARDIA), Italy","lng":9.21158,"~unique-id~":"114"},{"lat":45.56795,"nome":"PADERNO DUGNANO","banca":"BPCI","class":"it.iap.google.maps.geocoder.Filiale","indirizzo":"Via Rotondi 13\/A, PADERNO DUGNANO, MI (LOMBARDIA), Italy","lng":9.163626,"~unique-id~":"115"},{"lat":45.557323,"nome":"PARABIAGO","banca":"BPCI","class":"it.iap.google.maps.geocoder.Filiale","indirizzo":"Via S. Maria 22, PARABIAGO, MI (LOMBARDIA), Italy","lng":8.949364,"~unique-id~":"116"},{"lat":45.427044,"nome":"PESCHIERA BORROMEO","banca":"BPCI","class":"it.iap.google.maps.geocoder.Filiale","indirizzo":"Viale Liberazione 41, PESCHIERA BORROMEO, MI (LOMBARDIA), Italy","lng":9.308691,"~unique-id~":"117"},{"lat":45.532944,"nome":"RHO - EUROPA","banca":"BPCI","class":"it.iap.google.maps.geocoder.Filiale","indirizzo":"Corso Europa 209, RHO - EUROPA, MI (LOMBARDIA), Italy","lng":9.036374,"~unique-id~":"118"},{"lat":45.52457,"nome":"RHO - MEDA","banca":"BPCI","class":"it.iap.google.maps.geocoder.Filiale","indirizzo":"Via Meda 47, RHO - MEDA, MI (LOMBARDIA), Italy","lng":9.04306,"~unique-id~":"119"},{"lat":45.384613,"nome":"ROZZANO","banca":"BPCI","class":"it.iap.google.maps.geocoder.Filiale","indirizzo":"Viale Lombardia 17, ROZZANO, MI (LOMBARDIA), Italy","lng":9.153312,"~unique-id~":"120"},{"lat":45.40179,"nome":"SAN GIULIANO MILANESE","banca":"BPCI","class":"it.iap.google.maps.geocoder.Filiale","indirizzo":"Via Fratelli Cervi 31, SAN GIULIANO MILANESE, MI (LOMBARDIA), Italy","lng":9.277737,"~unique-id~":"121"},{"lat":45.61011,"nome":"SEREGNO - MATTEOTTI","banca":"BPCI","class":"it.iap.google.maps.geocoder.Filiale","indirizzo":"Corso Matteotti 64, SEREGNO, MI (LOMBARDIA), Italy","lng":9.235869,"~unique-id~":"122"},{"lat":45.649143,"nome":"SEREGNO - SAN VITALE","banca":"BPCI","class":"it.iap.google.maps.geocoder.Filiale","indirizzo":"Via Medici Da Seregno 29\/31, SEREGNO, MI (LOMBARDIA), Italy","lng":9.203763,"~unique-id~":"123"},{"lat":45.535725,"nome":"SESTO SAN GIOVANNI","banca":"BPCI","class":"it.iap.google.maps.geocoder.Filiale","indirizzo":"Viale Casiraghi 40, SESTO SAN GIOVANNI, MI (LOMBARDIA), Italy","lng":9.231768,"~unique-id~":"124"},{"lat":45.610203,"nome":"VEDANO AL LAMBRO","banca":"BPCI","class":"it.iap.google.maps.geocoder.Filiale","indirizzo":"Largo Della Repubblica 7, VEDANO AL LAMBRO, MI (LOMBARDIA), Italy","lng":9.272086,"~unique-id~":"125"},{"lat":45.156933,"nome":"MANTOVA SEDE","banca":"BPCI","class":"it.iap.google.maps.geocoder.Filiale","indirizzo":"Via Bertani 22\/24, MANTOVA, MN (LOMBARDIA), Italy","lng":10.795743,"~unique-id~":"126"},{"lat":44.782497,"nome":"CARPI","banca":"BPCI","class":"it.iap.google.maps.geocoder.Filiale","indirizzo":"Via Peruzzi 6, CARPI, MO (EMILIA ROMAGNA), Italy","lng":10.8772,"~unique-id~":"127"},{"lat":44.641327,"nome":"MODENA SEDE","banca":"BPCI","class":"it.iap.google.maps.geocoder.Filiale","indirizzo":"Viale Trento E Trieste, MODENA, MO (EMILIA ROMAGNA), Italy","lng":10.931974,"~unique-id~":"128"},{"lat":44.54357,"nome":"SASSUOLO","banca":"BPCI","class":"it.iap.google.maps.geocoder.Filiale","indirizzo":"Viale Crispi 61, SASSUOLO, MO (EMILIA ROMAGNA), Italy","lng":10.782822,"~unique-id~":"129"},{"lat":40.839157,"nome":"NAPOLI - SANTA BRIGIDA","banca":"BPCI","class":"it.iap.google.maps.geocoder.Filiale","indirizzo":"Via Santa Brigida 62\/63, NAPOLI, NA (CAMPANIA), Italy","lng":14.249905,"~unique-id~":"130"},{"lat":40.837242,"nome":"NAPOLI SEDE","banca":"BPCI","class":"it.iap.google.maps.geocoder.Filiale","indirizzo":"Via Crispi 2, NAPOLI, NA (CAMPANIA), Italy","lng":14.23352,"~unique-id~":"131"},{"lat":45.758457,"nome":"ARONA","banca":"BPCI","class":"it.iap.google.maps.geocoder.Filiale","indirizzo":"Corso Liberazione 39, ARONA, NO (PIEMONTE), Italy","lng":8.558093,"~unique-id~":"132"},{"lat":45.69853,"nome":"BORGOMANERO","banca":"BPCI","class":"it.iap.google.maps.geocoder.Filiale","indirizzo":"Piazza Martiri Della Liberta' 21\/23\/25, BORGOMANERO, NO (PIEMONTE), Italy","lng":8.462478,"~unique-id~":"133"},{"lat":45.4501,"nome":"NOVARA SEDE","banca":"BPCI","class":"it.iap.google.maps.geocoder.Filiale","indirizzo":"Corso Della Vittoria 1, NOVARA, NO (PIEMONTE), Italy","lng":8.622202,"~unique-id~":"134"},{"lat":38.130867,"nome":"PALERMO SEDE","banca":"BPCI","class":"it.iap.google.maps.geocoder.Filiale","indirizzo":"Via Notarbartolo 6, PALERMO, PA (SICILIA), Italy","lng":13.338226,"~unique-id~":"135"},{"lat":45.044712,"nome":"PIACENZA - VELLEIA","banca":"BPCI","class":"it.iap.google.maps.geocoder.Filiale","indirizzo":"Piazzale Velleia 1, PIACENZA, PC (EMILIA ROMAGNA), Italy","lng":9.705072,"~unique-id~":"136"},{"lat":45.04943,"nome":"PIACENZA SEDE","banca":"BPCI","class":"it.iap.google.maps.geocoder.Filiale","indirizzo":"Via Verdi 48, PIACENZA, PC (EMILIA ROMAGNA), Italy","lng":9.693948,"~unique-id~":"137"},{"lat":45.421745,"nome":"NOVENTA PADOVANA","banca":"BPCI","class":"it.iap.google.maps.geocoder.Filiale","indirizzo":"Via Giovanni Xxiii 2, NOVENTA PADOVANA, PD (VENETO), Italy","lng":11.943599,"~unique-id~":"138"},{"lat":42.462116,"nome":"PESCARA SEDE","banca":"BPCI","class":"it.iap.google.maps.geocoder.Filiale","indirizzo":"Via Marconi 21, PESCARA, PE (ABRUZZO), Italy","lng":14.215652,"~unique-id~":"139"},{"lat":43.45738,"nome":"CITTA' DI CASTELLO","banca":"BPCI","class":"it.iap.google.maps.geocoder.Filiale","indirizzo":"Corso Cavour 5\/7\/9, CITTA' DI CASTELLO, PG (UMBRIA), Italy","lng":12.239249,"~unique-id~":"140"},{"lat":43.095425,"nome":"PERUGIA - SETTEVALLI","banca":"BPCI","class":"it.iap.google.maps.geocoder.Filiale","indirizzo":"Via Settevalli 133, PERUGIA, PG (UMBRIA), Italy","lng":12.37027,"~unique-id~":"141"},{"lat":43.100075,"nome":"PERUGIA SEDE","banca":"BPCI","class":"it.iap.google.maps.geocoder.Filiale","indirizzo":"Via Dei Filosofi 36, PERUGIA, PG (UMBRIA), Italy","lng":12.391492,"~unique-id~":"142"},{"lat":44.617104,"nome":"LANGHIRANO","banca":"BPCI","class":"it.iap.google.maps.geocoder.Filiale","indirizzo":"Via Roma 25, LANGHIRANO, PR (EMILIA ROMAGNA), Italy","lng":10.26922,"~unique-id~":"143"},{"lat":44.801186,"nome":"PARMA - REPUBBLICA","banca":"BPCI","class":"it.iap.google.maps.geocoder.Filiale","indirizzo":"Via Della Repubblica 6, PARMA, PR (EMILIA ROMAGNA), Italy","lng":10.329283,"~unique-id~":"144"},{"lat":44.814648,"nome":"PARMA SEDE","banca":"BPCI","class":"it.iap.google.maps.geocoder.Filiale","indirizzo":"Via San Leonardo 4, PARMA, PR (EMILIA ROMAGNA), Italy","lng":10.331128,"~unique-id~":"145"},{"lat":45.06275,"nome":"BRONI","banca":"BPCI","class":"it.iap.google.maps.geocoder.Filiale","indirizzo":"Piazza Vittorio Veneto 52, BRONI, PV (LOMBARDIA), Italy","lng":9.260327,"~unique-id~":"146"},{"lat":45.015755,"nome":"CASTEGGIO","banca":"BPCI","class":"it.iap.google.maps.geocoder.Filiale","indirizzo":"Piazza Cavour 27, CASTEGGIO, PV (LOMBARDIA), Italy","lng":9.126692,"~unique-id~":"147"},{"lat":45.251812,"nome":"MORTARA","banca":"BPCI","class":"it.iap.google.maps.geocoder.Filiale","indirizzo":"Piazza Martiri Della Liberta', MORTARA, PV (LOMBARDIA), Italy","lng":8.738417,"~unique-id~":"148"},{"lat":45.184578,"nome":"PAVIA - DUOMO","banca":"BPCI","class":"it.iap.google.maps.geocoder.Filiale","indirizzo":"Piazza Duomo, PAVIA, PV (LOMBARDIA), Italy","lng":9.152654,"~unique-id~":"149"},{"lat":45.182632,"nome":"PAVIA SEDE","banca":"BPCI","class":"it.iap.google.maps.geocoder.Filiale","indirizzo":"Via Montebello Della Battaglia 2, PAVIA, PV (LOMBARDIA), Italy","lng":9.144321,"~unique-id~":"150"},{"lat":45.25075,"nome":"ROSASCO","banca":"BPCI","class":"it.iap.google.maps.geocoder.Filiale","indirizzo":"Via Roma 4, ROSASCO, PV (LOMBARDIA), Italy","lng":8.579971,"~unique-id~":"151"},{"lat":45.282585,"nome":"TORREVECCHIA PIA","banca":"BPCI","class":"it.iap.google.maps.geocoder.Filiale","indirizzo":"Via Milano 9, TORREVECCHIA PIA, PV (LOMBARDIA), Italy","lng":9.29662,"~unique-id~":"152"},{"lat":45.312325,"nome":"VIGEVANO - CARMINE","banca":"BPCI","class":"it.iap.google.maps.geocoder.Filiale","indirizzo":"Via Madonna Degli Angeli 1, VIGEVANO, PV (LOMBARDIA), Italy","lng":8.859783,"~unique-id~":"153"},{"lat":45.301743,"nome":"VIGEVANO - CORSO GENOVA","banca":"BPCI","class":"it.iap.google.maps.geocoder.Filiale","indirizzo":"Corso Genova 103, VIGEVANO, PV (LOMBARDIA), Italy","lng":8.85322,"~unique-id~":"154"},{"lat":45.319878,"nome":"VIGEVANO - DE AMICIS","banca":"BPCI","class":"it.iap.google.maps.geocoder.Filiale","indirizzo":"Via De Amicis 5, VIGEVANO, PV (LOMBARDIA), Italy","lng":8.860035,"~unique-id~":"155"},{"lat":45.313393,"nome":"VIGEVANO SEDE","banca":"BPCI","class":"it.iap.google.maps.geocoder.Filiale","indirizzo":"Via Dante 39, VIGEVANO, PV (LOMBARDIA), Italy","lng":8.743341,"~unique-id~":"156"},{"lat":44.69402,"nome":"REGGIO EMILIA SEDE","banca":"BPCI","class":"it.iap.google.maps.geocoder.Filiale","indirizzo":"Viale Monte Grappa, REGGIO EMILIA,  (EMILIA ROMAGNA), Italy","lng":10.635235,"~unique-id~":"157"},{"lat":44.64796,"nome":"RUBIERA","banca":"BPCI","class":"it.iap.google.maps.geocoder.Filiale","indirizzo":"Viale Della Resistenza, RUBIERA,  (EMILIA ROMAGNA), Italy","lng":10.780559,"~unique-id~":"158"},{"lat":41.831516,"nome":"ROMA - BALDOVINETTI","banca":"BPCI","class":"it.iap.google.maps.geocoder.Filiale","indirizzo":"Via Baldovinetti 92\/94, ROMA, RM (LAZIO), Italy","lng":12.494494,"~unique-id~":"159"},{"lat":41.90028,"nome":"ROMA - BOCCEA","banca":"BPCI","class":"it.iap.google.maps.geocoder.Filiale","indirizzo":"Via Boccea 51, ROMA, RM (LAZIO), Italy","lng":12.428261,"~unique-id~":"160"},{"lat":41.881447,"nome":"ROMA - CERVETERI","banca":"BPCI","class":"it.iap.google.maps.geocoder.Filiale","indirizzo":"Via Cerveteri 30, ROMA, RM (LAZIO), Italy","lng":12.51128,"~unique-id~":"161"},{"lat":41.866577,"nome":"ROMA - COLLI PORTUENSI","banca":"BPCI","class":"it.iap.google.maps.geocoder.Filiale","indirizzo":"Viale Dei Colli Portuensi 298, ROMA, RM (LAZIO), Italy","lng":12.443873,"~unique-id~":"162"},{"lat":41.946938,"nome":"ROMA - NITTI","banca":"BPCI","class":"it.iap.google.maps.geocoder.Filiale","indirizzo":"Via Francesco Saverio Nitti, ROMA, RM (LAZIO), Italy","lng":12.472272,"~unique-id~":"163"},{"lat":41.876698,"nome":"ROMA - NORCIA","banca":"BPCI","class":"it.iap.google.maps.geocoder.Filiale","indirizzo":"Via Norcia 1, ROMA, RM (LAZIO), Italy","lng":12.529198,"~unique-id~":"164"},{"lat":41.927433,"nome":"ROMA - PARIOLI","banca":"BPCI","class":"it.iap.google.maps.geocoder.Filiale","indirizzo":"Via Guidubaldo Del Monte 13, ROMA, RM (LAZIO), Italy","lng":12.47991,"~unique-id~":"165"},{"lat":41.911922,"nome":"ROMA - PROVINCIE","banca":"BPCI","class":"it.iap.google.maps.geocoder.Filiale","indirizzo":"Viale Delle Provincie 34, ROMA, RM (LAZIO), Italy","lng":12.520668,"~unique-id~":"166"},{"lat":41.914715,"nome":"ROMA - REGINA MARGHERITA","banca":"BPCI","class":"it.iap.google.maps.geocoder.Filiale","indirizzo":"Viale Regina Margherita 196, ROMA, RM (LAZIO), Italy","lng":12.504344,"~unique-id~":"167"},{"lat":41.853764,"nome":"ROMA - SESTIO CALVINO","banca":"BPCI","class":"it.iap.google.maps.geocoder.Filiale","indirizzo":"Via Sestio Calvino 57, ROMA, RM (LAZIO), Italy","lng":12.565253,"~unique-id~":"168"},{"lat":41.90849,"nome":"ROMA - TIBURTINA","banca":"BPCI","class":"it.iap.google.maps.geocoder.Filiale","indirizzo":"Via Tiburtina 544, ROMA, RM (LAZIO), Italy","lng":12.542664,"~unique-id~":"169"},{"lat":41.887756,"nome":"ROMA - TRASTEVERE","banca":"BPCI","class":"it.iap.google.maps.geocoder.Filiale","indirizzo":"Viale Di Trastevere 22, ROMA, RM (LAZIO), Italy","lng":12.472886,"~unique-id~":"170"},{"lat":41.910667,"nome":"ROMA - TRIONFALE","banca":"BPCI","class":"it.iap.google.maps.geocoder.Filiale","indirizzo":"Largo Trionfale 11, ROMA, RM (LAZIO), Italy","lng":12.45432,"~unique-id~":"171"},{"lat":41.933327,"nome":"ROMA - VESCOVIO","banca":"BPCI","class":"it.iap.google.maps.geocoder.Filiale","indirizzo":"Piazza Vescovio 3, ROMA, RM (LAZIO), Italy","lng":12.512195,"~unique-id~":"172"},{"lat":41.89595,"nome":"ROMA SEDE","banca":"BPCI","class":"it.iap.google.maps.geocoder.Filiale","indirizzo":"Corso Vittorio Emanuele Ii 25\/27, ROMA, RM (LAZIO), Italy","lng":12.478114,"~unique-id~":"173"},{"lat":44.063183,"nome":"RIMINI SEDE","banca":"BPCI","class":"it.iap.google.maps.geocoder.Filiale","indirizzo":"Via Gambalunga 73, RIMINI, RN (EMILIA ROMAGNA), Italy","lng":12.569646,"~unique-id~":"174"},{"lat":45.065216,"nome":"TORINO SEDE","banca":"BPCI","class":"it.iap.google.maps.geocoder.Filiale","indirizzo":"Via Buozzi 10, TORINO, TO (PIEMONTE), Italy","lng":7.681199,"~unique-id~":"175"},{"lat":45.773106,"nome":"ANGERA","banca":"BPCI","class":"it.iap.google.maps.geocoder.Filiale","indirizzo":"Via M. Greppi 33, ANGERA, VA (LOMBARDIA), Italy","lng":8.575495,"~unique-id~":"176"},{"lat":45.844795,"nome":"BESOZZO","banca":"BPCI","class":"it.iap.google.maps.geocoder.Filiale","indirizzo":"Via 25 Aprile 24, BESOZZO, VA (LOMBARDIA), Italy","lng":8.664808,"~unique-id~":"177"},{"lat":45.82124,"nome":"BIANDRONNO","banca":"BPCI","class":"it.iap.google.maps.geocoder.Filiale","indirizzo":"Piazza Cavour, BIANDRONNO, VA (LOMBARDIA), Italy","lng":8.713815,"~unique-id~":"178"},{"lat":45.902714,"nome":"BISUSCHIO","banca":"BPCI","class":"it.iap.google.maps.geocoder.Filiale","indirizzo":"Via Mazzini 28, BISUSCHIO, VA (LOMBARDIA), Italy","lng":8.902701,"~unique-id~":"179"},{"lat":45.611523,"nome":"BUSTO ARSIZIO - CADORNA","banca":"BPCI","class":"it.iap.google.maps.geocoder.Filiale","indirizzo":"Viale Cadorna 4, BUSTO ARSIZIO, VA (LOMBARDIA), Italy","lng":8.856769,"~unique-id~":"180"},{"lat":45.674435,"nome":"BUSTO ARSIZIO - FOSCOLO","banca":"BPCI","class":"it.iap.google.maps.geocoder.Filiale","indirizzo":"Via Foscolo 10, BUSTO ARSIZIO, VA (LOMBARDIA), Italy","lng":8.833233,"~unique-id~":"181"},{"lat":45.820004,"nome":"CANTELLO","banca":"BPCI","class":"it.iap.google.maps.geocoder.Filiale","indirizzo":"Via Turconi 1, CANTELLO, VA (LOMBARDIA), Italy","lng":8.892291,"~unique-id~":"182"},{"lat":45.650093,"nome":"CARDANO AL CAMPO","banca":"BPCI","class":"it.iap.google.maps.geocoder.Filiale","indirizzo":"Via A. Gramsci 89, CARDANO AL CAMPO, VA (LOMBARDIA), Italy","lng":8.76854,"~unique-id~":"183"},{"lat":45.673325,"nome":"CASSANO MAGNAGO","banca":"BPCI","class":"it.iap.google.maps.geocoder.Filiale","indirizzo":"Via Aldo Moro 6, CASSANO MAGNAGO, VA (LOMBARDIA), Italy","lng":8.824384,"~unique-id~":"184"},{"lat":45.610756,"nome":"CASTELLANZA","banca":"BPCI","class":"it.iap.google.maps.geocoder.Filiale","indirizzo":"P.Za Soldini, CASTELLANZA, VA (LOMBARDIA), Italy","lng":8.903254,"~unique-id~":"185"},{"lat":45.74955,"nome":"CASTIGLIONE OLONA","banca":"BPCI","class":"it.iap.google.maps.geocoder.Filiale","indirizzo":"Via Cesare Battisti 13, CASTIGLIONE OLONA, VA (LOMBARDIA), Italy","lng":8.878482,"~unique-id~":"186"},{"lat":45.749268,"nome":"CASTRONNO","banca":"BPCI","class":"it.iap.google.maps.geocoder.Filiale","indirizzo":"Via Roma 51, CASTRONNO, VA (LOMBARDIA), Italy","lng":8.808979,"~unique-id~":"187"},{"lat":45.688198,"nome":"CAVARIA CON PREMEZZO","banca":"BPCI","class":"it.iap.google.maps.geocoder.Filiale","indirizzo":"Via Scipione Ronchetti 1318, CAVARIA CON PREMEZZO, VA (LOMBARDIA), Italy","lng":8.800798,"~unique-id~":"188"},{"lat":45.894203,"nome":"CITTIGLIO","banca":"BPCI","class":"it.iap.google.maps.geocoder.Filiale","indirizzo":"Via Valcuvia 19, CITTIGLIO, VA (LOMBARDIA), Italy","lng":8.670039,"~unique-id~":"189"},{"lat":45.839478,"nome":"COMERIO","banca":"BPCI","class":"it.iap.google.maps.geocoder.Filiale","indirizzo":"Via Al Lago 2, COMERIO, VA (LOMBARDIA), Italy","lng":8.746166,"~unique-id~":"190"},{"lat":45.9349,"nome":"CUNARDO","banca":"BPCI","class":"it.iap.google.maps.geocoder.Filiale","indirizzo":"Via Luinese 1\/A, CUNARDO, VA (LOMBARDIA), Italy","lng":8.801811,"~unique-id~":"191"},{"lat":45.904564,"nome":"CUVEGLIO","banca":"BPCI","class":"it.iap.google.maps.geocoder.Filiale","indirizzo":"Via Battaglia Di S. Martino 50, CUVEGLIO, VA (LOMBARDIA), Italy","lng":8.73492,"~unique-id~":"192"},{"lat":45.661922,"nome":"GALLARATE - EUROPA","banca":"BPCI","class":"it.iap.google.maps.geocoder.Filiale","indirizzo":"Piazzale Europa 2, GALLARATE, VA (LOMBARDIA), Italy","lng":8.794408,"~unique-id~":"193"},{"lat":45.693092,"nome":"GALLARATE - VERDI","banca":"BPCI","class":"it.iap.google.maps.geocoder.Filiale","indirizzo":"Via Verdi 1, GALLARATE, VA (LOMBARDIA), Italy","lng":8.807581,"~unique-id~":"194"},{"lat":45.843826,"nome":"GAVIRATE","banca":"BPCI","class":"it.iap.google.maps.geocoder.Filiale","indirizzo":"Via 4 Novembre 21, GAVIRATE, VA (LOMBARDIA), Italy","lng":8.713692,"~unique-id~":"195"},{"lat":45.994434,"nome":"GERMIGNAGA","banca":"BPCI","class":"it.iap.google.maps.geocoder.Filiale","indirizzo":"Piazza 20 Settembre 51, GERMIGNAGA, VA (LOMBARDIA), Italy","lng":8.727951,"~unique-id~":"196"},{"lat":45.909775,"nome":"LAVENO MOMBELLO","banca":"BPCI","class":"it.iap.google.maps.geocoder.Filiale","indirizzo":"Via Labiena 81, LAVENO MOMBELLO, VA (LOMBARDIA), Italy","lng":8.620114,"~unique-id~":"197"},{"lat":45.874893,"nome":"LEGGIUNO","banca":"BPCI","class":"it.iap.google.maps.geocoder.Filiale","indirizzo":"Via Bernardoni 9, LEGGIUNO, VA (LOMBARDIA), Italy","lng":8.62009,"~unique-id~":"198"},{"lat":45.599373,"nome":"LONATE POZZOLO","banca":"BPCI","class":"it.iap.google.maps.geocoder.Filiale","indirizzo":"Via Cavour 1, LONATE POZZOLO, VA (LOMBARDIA), Italy","lng":8.753375,"~unique-id~":"199"},{"lat":45.996563,"nome":"LUINO - FORLANINI","banca":"BPCI","class":"it.iap.google.maps.geocoder.Filiale","indirizzo":"Via Forlanini 6, LUINO, VA (LOMBARDIA), Italy","lng":8.745253,"~unique-id~":"200"},{"lat":46.002335,"nome":"LUINO SEDE","banca":"BPCI","class":"it.iap.google.maps.geocoder.Filiale","indirizzo":"Via Piero Chiara 7, LUINO, VA (LOMBARDIA), Italy","lng":8.741825,"~unique-id~":"201"},{"lat":46.038754,"nome":"MACCAGNO","banca":"BPCI","class":"it.iap.google.maps.geocoder.Filiale","indirizzo":"Viale Garibaldi 13, MACCAGNO, VA (LOMBARDIA), Italy","lng":8.74082,"~unique-id~":"202"},{"lat":45.949776,"nome":"MARCHIROLO","banca":"BPCI","class":"it.iap.google.maps.geocoder.Filiale","indirizzo":"Piazza L. Borasio 12, MARCHIROLO, VA (LOMBARDIA), Italy","lng":8.833047,"~unique-id~":"203"},{"lat":45.858124,"nome":"MONVALLE","banca":"BPCI","class":"it.iap.google.maps.geocoder.Filiale","indirizzo":"Piazza Marconi 1, MONVALLE, VA (LOMBARDIA), Italy","lng":8.632107,"~unique-id~":"204"},{"lat":45.96711,"nome":"PONTE TRESA","banca":"BPCI","class":"it.iap.google.maps.geocoder.Filiale","indirizzo":"Piazza A. Gramsci 8, PONTE TRESA, VA (LOMBARDIA), Italy","lng":8.857321,"~unique-id~":"205"},{"lat":45.905098,"nome":"PORTO CERESIO","banca":"BPCI","class":"it.iap.google.maps.geocoder.Filiale","indirizzo":"Via Roma 2, PORTO CERESIO, VA (LOMBARDIA), Italy","lng":8.906,"~unique-id~":"206"},{"lat":45.961872,"nome":"PORTO VALTRAVAGLIA","banca":"BPCI","class":"it.iap.google.maps.geocoder.Filiale","indirizzo":"Piazza Imbarcadero, PORTO VALTRAVAGLIA, VA (LOMBARDIA), Italy","lng":8.680601,"~unique-id~":"207"},{"lat":45.62886,"nome":"SARONNO - BORELLA","banca":"BPCI","class":"it.iap.google.maps.geocoder.Filiale","indirizzo":"Piazza Borella 4, SARONNO, VA (LOMBARDIA), Italy","lng":9.040927,"~unique-id~":"208"},{"lat":45.627422,"nome":"SARONNO - SAN GIUSEPPE","banca":"BPCI","class":"it.iap.google.maps.geocoder.Filiale","indirizzo":"Via San Giuseppe 29, SARONNO, VA (LOMBARDIA), Italy","lng":9.03338,"~unique-id~":"209"},{"lat":45.723946,"nome":"SESTO CALENDE","banca":"BPCI","class":"it.iap.google.maps.geocoder.Filiale","indirizzo":"Piazza Abba 1, SESTO CALENDE, VA (LOMBARDIA), Italy","lng":8.63548,"~unique-id~":"210"},{"lat":45.71101,"nome":"TRADATE","banca":"BPCI","class":"it.iap.google.maps.geocoder.Filiale","indirizzo":"Corso Bernacchi 95, TRADATE, VA (LOMBARDIA), Italy","lng":8.907761,"~unique-id~":"211"},{"lat":45.828667,"nome":"TRAVEDONA","banca":"BPCI","class":"it.iap.google.maps.geocoder.Filiale","indirizzo":"Via Roma 1, TRAVEDONA, VA (LOMBARDIA), Italy","lng":8.649048,"~unique-id~":"212"},{"lat":45.803406,"nome":"VARESE - BORRI","banca":"BPCI","class":"it.iap.google.maps.geocoder.Filiale","indirizzo":"Viale Borri 106, VARESE, VA (LOMBARDIA), Italy","lng":8.841273,"~unique-id~":"213"},{"lat":45.81975,"nome":"VARESE - GRIFFI","banca":"BPCI","class":"it.iap.google.maps.geocoder.Filiale","indirizzo":"Via Griffi 6, VARESE, VA (LOMBARDIA), Italy","lng":8.827271,"~unique-id~":"214"},{"lat":45.824196,"nome":"VARESE - SANVITO","banca":"BPCI","class":"it.iap.google.maps.geocoder.Filiale","indirizzo":"Via Sanvito Silvestro 55, VARESE, VA (LOMBARDIA), Italy","lng":8.810857,"~unique-id~":"215"},{"lat":45.81819,"nome":"VARESE SEDE","banca":"BPCI","class":"it.iap.google.maps.geocoder.Filiale","indirizzo":"Piazza Battistero 2, VARESE, VA (LOMBARDIA), Italy","lng":8.827159,"~unique-id~":"216"},{"lat":46.06136,"nome":"CANNOBIO","banca":"BPCI","class":"it.iap.google.maps.geocoder.Filiale","indirizzo":"Via Umberto I 2, CANNOBIO, VB (PIEMONTE), Italy","lng":8.69789,"~unique-id~":"217"},{"lat":45.95719,"nome":"GHIFFA","banca":"BPCI","class":"it.iap.google.maps.geocoder.Filiale","indirizzo":"Corso Belvedere 153, GHIFFA, VB (PIEMONTE), Italy","lng":8.618292,"~unique-id~":"218"},{"lat":45.93491,"nome":"VERBANIA - INTRA","banca":"BPCI","class":"it.iap.google.maps.geocoder.Filiale","indirizzo":"Piazza Matteotti 18, VERBANIA, VB (PIEMONTE), Italy","lng":8.571225,"~unique-id~":"219"},{"lat":45.715458,"nome":"BORGOSESIA","banca":"BPCI","class":"it.iap.google.maps.geocoder.Filiale","indirizzo":"Via Duca D'Aosta 21, BORGOSESIA, VC (PIEMONTE), Italy","lng":8.279053,"~unique-id~":"220"},{"lat":45.436356,"nome":"VERONA - OSPITAL VECCHIO","banca":"BPCI","class":"it.iap.google.maps.geocoder.Filiale","indirizzo":"Via Caserma Ospital Vecchio 4\/C, VERONA, VR (VENETO), Italy","lng":10.993771,"~unique-id~":"221"},{"lat":45.433308,"nome":"VERONA SEDE","banca":"BPCI","class":"it.iap.google.maps.geocoder.Filiale","indirizzo":"Piazza Simoni 14, VERONA, VR (VENETO), Italy","lng":10.984583,"~unique-id~":"222"}]}