{"filiali":[{"lat":43.45813,"nome":"FILIALE AREZZO","banca":"BPI","class":"it.iap.google.maps.geocoder.Filiale","indirizzo":"Via 25 Aprile 28, AREZZO, AR, Italy","lng":11.881894,"~unique-id~":"0"},{"lat":41.119656,"nome":"FILIALE BARI","banca":"BPI","class":"it.iap.google.maps.geocoder.Filiale","indirizzo":"Via Nicolo' dell'Arca 9-9a, BARI, BA, Italy","lng":16.87083,"~unique-id~":"1"},{"lat":44.513367,"nome":"FILIALE BOLOGNA","banca":"BPI","class":"it.iap.google.maps.geocoder.Filiale","indirizzo":"Via Giuseppe Mazzini 146\/Q, BOLOGNA, BO, Italy","lng":11.211807,"~unique-id~":"2"},{"lat":45.523876,"nome":"FILIALE BRESCIA","banca":"BPI","class":"it.iap.google.maps.geocoder.Filiale","indirizzo":"Via Repubblica Argentina 90, BRESCIA, BS, Italy","lng":10.222895,"~unique-id~":"3"},{"lat":39.211143,"nome":"FILIALE CAGLIARI","banca":"BPI","class":"it.iap.google.maps.geocoder.Filiale","indirizzo":"Viale Bonaria 58, CAGLIARI, CA, Italy","lng":9.119333,"~unique-id~":"4"},{"lat":43.774014,"nome":"FILIALE FIRENZE","banca":"BPI","class":"it.iap.google.maps.geocoder.Filiale","indirizzo":"Via Ricasoli 21, FIRENZE, FI, Italy","lng":11.256433,"~unique-id~":"5"},{"lat":41.45972,"nome":"FILIALE FOGGIA","banca":"BPI","class":"it.iap.google.maps.geocoder.Filiale","indirizzo":"Via Salvatore Tugini 70, FOGGIA, FG, Italy","lng":15.552746,"~unique-id~":"6"},{"lat":41.63988,"nome":"FILIALE FROSINONE","banca":"BPI","class":"it.iap.google.maps.geocoder.Filiale","indirizzo":"Via Fedele Calvosa 27\/29, FROSINONE, FR, Italy","lng":13.334772,"~unique-id~":"7"},{"lat":44.40901,"nome":"FILIALE GENOVA","banca":"BPI","class":"it.iap.google.maps.geocoder.Filiale","indirizzo":"Via Roma 5, GENOVA, GE, Italy","lng":8.935887,"~unique-id~":"8"},{"lat":42.76467,"nome":"FILIALE GROSSETO","banca":"BPI","class":"it.iap.google.maps.geocoder.Filiale","indirizzo":"Via Giacomo Matteotti 32, GROSSETO, GR, Italy","lng":10.872971,"~unique-id~":"9"},{"lat":42.350956,"nome":"FILIALE L'AQUILA","banca":"BPI","class":"it.iap.google.maps.geocoder.Filiale","indirizzo":"Via Giuseppe Verdi 21 a\/c, L'AQUILA, AQ, Italy","lng":13.400933,"~unique-id~":"10"},{"lat":41.46123,"nome":"FILIALE LATINA","banca":"BPI","class":"it.iap.google.maps.geocoder.Filiale","indirizzo":"Viale Le Corbusier, LATINA, LT, Italy","lng":12.886946,"~unique-id~":"11"},{"lat":43.535347,"nome":"FILIALE LIVORNO","banca":"BPI","class":"it.iap.google.maps.geocoder.Filiale","indirizzo":"Via della Liberta' 47\/49, LIVORNO, LI, Italy","lng":10.319573,"~unique-id~":"12"},{"lat":45.492287,"nome":"FILIALE MESTRE","banca":"BPI","class":"it.iap.google.maps.geocoder.Filiale","indirizzo":"Via Rosa 23, MESTRE, VE, Italy","lng":12.23936,"~unique-id~":"13"},{"lat":45.466896,"nome":"FILIALE MILANO","banca":"BPI","class":"it.iap.google.maps.geocoder.Filiale","indirizzo":"Corso Giacomo Matteotti 12, MILANO, MI, Italy","lng":9.195282,"~unique-id~":"14"},{"lat":45.573803,"nome":"FILIALE MONZA","banca":"BPI","class":"it.iap.google.maps.geocoder.Filiale","indirizzo":"Via Gerolamo Borgazzi 7, MONZA, MI, Italy","lng":9.268619,"~unique-id~":"15"},{"lat":40.843456,"nome":"FILIALE NAPOLI","banca":"BPI","class":"it.iap.google.maps.geocoder.Filiale","indirizzo":"Galleria Vanvitelli, NAPOLI, NA, Italy","lng":14.232316,"~unique-id~":"16"},{"lat":44.785084,"nome":"FILIALE PARMA","banca":"BPI","class":"it.iap.google.maps.geocoder.Filiale","indirizzo":"Via Rossi 2, PARMA, PR, Italy","lng":10.340893,"~unique-id~":"17"},{"lat":43.096325,"nome":"FILIALE PERUGIA","banca":"BPI","class":"it.iap.google.maps.geocoder.Filiale","indirizzo":"Via Settevalli 131, PERUGIA, PG, Italy","lng":12.370564,"~unique-id~":"18"},{"lat":43.91338,"nome":"FILIALE PESARO","banca":"BPI","class":"it.iap.google.maps.geocoder.Filiale","indirizzo":"Via Telesforo Bertozzini 13, PESARO, PU, Italy","lng":12.911439,"~unique-id~":"19"},{"lat":42.47244,"nome":"FILIALE PESCARA","banca":"BPI","class":"it.iap.google.maps.geocoder.Filiale","indirizzo":"Piazza Rinascita 6\/9, PESCARA, PE, Italy","lng":14.208987,"~unique-id~":"20"},{"lat":43.76363,"nome":"FILIALE PISA","banca":"BPI","class":"it.iap.google.maps.geocoder.Filiale","indirizzo":"Via G.B. Niccolini 8\/10, PISA, PI, Italy","lng":10.44394,"~unique-id~":"21"},{"lat":42.411358,"nome":"FILIALE RIETI","banca":"BPI","class":"it.iap.google.maps.geocoder.Filiale","indirizzo":"Via Molino della Salce, RIETI, RI, Italy","lng":12.84906,"~unique-id~":"22"},{"lat":41.831257,"nome":"FILIALE ROMA","banca":"BPI","class":"it.iap.google.maps.geocoder.Filiale","indirizzo":"Via Baldovinetti 106\/110, ROMA, RM, Italy","lng":12.494465,"~unique-id~":"23"},{"lat":41.853374,"nome":"FILIALE ROMA 2","banca":"BPI","class":"it.iap.google.maps.geocoder.Filiale","indirizzo":"Via Anicio Gallo 91 e\/i, ROMA, RM, Italy","lng":12.563009,"~unique-id~":"24"},{"lat":41.729286,"nome":"FILIALE ROMA 3 - OSTIA","banca":"BPI","class":"it.iap.google.maps.geocoder.Filiale","indirizzo":"P.zza Giuliano della Rovere 9-11\/a, ROMA, RM, Italy","lng":12.281113,"~unique-id~":"25"},{"lat":41.92035,"nome":"FILIALE ROMA 4","banca":"BPI","class":"it.iap.google.maps.geocoder.Filiale","indirizzo":"Via Vincenzo Bellini 27, ROMA, RM, Italy","lng":12.494944,"~unique-id~":"26"},{"lat":40.676228,"nome":"FILIALE SALERNO","banca":"BPI","class":"it.iap.google.maps.geocoder.Filiale","indirizzo":"Via Santi Martiri Salernitani 42\/46, SALERNO, SA, Italy","lng":14.769097,"~unique-id~":"27"},{"lat":43.56505,"nome":"FILIALE SAN GIOVANNI VALDARNO","banca":"BPI","class":"it.iap.google.maps.geocoder.Filiale","indirizzo":"Corso Italia 117, SAN GIOVANNI VALDARNO, AR, Italy","lng":11.530195,"~unique-id~":"28"},{"lat":42.565865,"nome":"FILIALE TERNI","banca":"BPI","class":"it.iap.google.maps.geocoder.Filiale","indirizzo":"Via della Bardesca 7\/11, TERNI, TR, Italy","lng":12.652789,"~unique-id~":"29"},{"lat":45.059742,"nome":"FILIALE TORINO","banca":"BPI","class":"it.iap.google.maps.geocoder.Filiale","indirizzo":"Corso Re Umberto I 47, TORINO, TO, Italy","lng":7.670885,"~unique-id~":"30"},{"lat":43.602634,"nome":"PROMOTORI ANCONA","banca":"BPI","class":"it.iap.google.maps.geocoder.Filiale","indirizzo":"Via Scrima 29, ANCONA, AN, Italy","lng":13.50093,"~unique-id~":"31"},{"lat":44.048737,"nome":"PROMOTORI ALBENGA","banca":"BPI","class":"it.iap.google.maps.geocoder.Filiale","indirizzo":"Via C. Battisti 8, ALBENGA, SV, Italy","lng":8.216292,"~unique-id~":"32"},{"lat":40.91491,"nome":"PROMOTORI AVELLINO","banca":"BPI","class":"it.iap.google.maps.geocoder.Filiale","indirizzo":"Corso Umberto I 186-188-190, AVELLINO, AV, Italy","lng":14.799153,"~unique-id~":"33"},{"lat":45.611336,"nome":"PROMOTORI BUSTO ARSIZIO","banca":"BPI","class":"it.iap.google.maps.geocoder.Filiale","indirizzo":"Piazza Venzaghi, BUSTO ARSIZIO, VA, Italy","lng":8.847449,"~unique-id~":"34"},{"lat":45.695824,"nome":"PROMOTORI CANTU'","banca":"BPI","class":"it.iap.google.maps.geocoder.Filiale","indirizzo":"Via C. Cavour 17, CANTU', CO, Italy","lng":9.17777,"~unique-id~":"35"},{"lat":44.197723,"nome":"PROMOTORI CESENATICO","banca":"BPI","class":"it.iap.google.maps.geocoder.Filiale","indirizzo":"Viale Roma 15\/c, CESENATICO, FC, Italy","lng":12.398504,"~unique-id~":"36"},{"lat":45.135235,"nome":"PROMOTORI CREMONA","banca":"BPI","class":"it.iap.google.maps.geocoder.Filiale","indirizzo":"Via Rialto 20, CREMONA, CR, Italy","lng":10.036725,"~unique-id~":"37"},{"lat":45.81035,"nome":"PROMOTORI ERBA","banca":"BPI","class":"it.iap.google.maps.geocoder.Filiale","indirizzo":"Corso 25 Aprile 157, ERBA, CO, Italy","lng":9.232263,"~unique-id~":"38"},{"lat":43.845154,"nome":"PROMOTORI FANO","banca":"BPI","class":"it.iap.google.maps.geocoder.Filiale","indirizzo":"Corso Giacomo Matteotti 67, FANO, PU, Italy","lng":13.014529,"~unique-id~":"39"},{"lat":44.40655,"nome":"PROMOTORI GENOVA","banca":"BPI","class":"it.iap.google.maps.geocoder.Filiale","indirizzo":"Via 20 Settembre 33\/11, GENOVA, GE, Italy","lng":8.936709,"~unique-id~":"40"},{"lat":43.89051,"nome":"PROMOTORI IMPERIA","banca":"BPI","class":"it.iap.google.maps.geocoder.Filiale","indirizzo":"Via Don Abbo 12\/14, IMPERIA, IM, Italy","lng":8.040031,"~unique-id~":"41"},{"lat":43.54716,"nome":"PROMOTORI LIVORNO","banca":"BPI","class":"it.iap.google.maps.geocoder.Filiale","indirizzo":"Piazza C. Cavour 6, LIVORNO, LI, Italy","lng":10.311536,"~unique-id~":"42"},{"lat":43.83275,"nome":"PROMOTORI LUCCA","banca":"BPI","class":"it.iap.google.maps.geocoder.Filiale","indirizzo":"Viale San Concordio 597, LUCCA, LU, Italy","lng":10.498442,"~unique-id~":"43"},{"lat":43.52346,"nome":"PROMOTORI MONTEVARCHI","banca":"BPI","class":"it.iap.google.maps.geocoder.Filiale","indirizzo":"Via Armando Diaz 43, MONTEVARCHI, AR, Italy","lng":11.570994,"~unique-id~":"44"},{"lat":45.467537,"nome":"PROMOTORI MILANO","banca":"BPI","class":"it.iap.google.maps.geocoder.Filiale","indirizzo":"Piazza Giovine Italia 3, MILANO, MI, Italy","lng":9.169362,"~unique-id~":"45"},{"lat":40.743603,"nome":"PROMOTORI NOCERA INFERIORE","banca":"BPI","class":"it.iap.google.maps.geocoder.Filiale","indirizzo":"Via Costantino Amato 21, NOCERA INFERIORE, SA, Italy","lng":14.64071,"~unique-id~":"46"},{"lat":43.710453,"nome":"PROMOTORI PISA","banca":"BPI","class":"it.iap.google.maps.geocoder.Filiale","indirizzo":"Piazza Antonio Toniolo 5, PISA, PI, Italy","lng":10.405379,"~unique-id~":"47"},{"lat":43.942657,"nome":"PROMOTORI PISTOIA","banca":"BPI","class":"it.iap.google.maps.geocoder.Filiale","indirizzo":"Via Adua 236, PISTOIA, PT, Italy","lng":10.90049,"~unique-id~":"48"},{"lat":43.663708,"nome":"PROMOTORI PONTEDERA","banca":"BPI","class":"it.iap.google.maps.geocoder.Filiale","indirizzo":"Corso Giacomo Matteotti 167, PONTEDERA, PI, Italy","lng":10.638833,"~unique-id~":"49"},{"lat":43.3657,"nome":"PROMOTORI RECANATI","banca":"BPI","class":"it.iap.google.maps.geocoder.Filiale","indirizzo":"Via Cesare Battisti 30\/32, RECANATI, MC, Italy","lng":13.619437,"~unique-id~":"50"},{"lat":44.66954,"nome":"PROMOTORI REGGIO EMILIA","banca":"BPI","class":"it.iap.google.maps.geocoder.Filiale","indirizzo":"Via Martiri di Cervarolo 42, REGGIO EMILIA, REGGIO EMILIA, Italy","lng":10.640746,"~unique-id~":"51"},{"lat":43.551823,"nome":"PROMOTORI TERRANUOVA BRACCIOLINI","banca":"BPI","class":"it.iap.google.maps.geocoder.Filiale","indirizzo":"Via Dei Medici 2, TERRANUOVA BRACCIOLINI, AR, Italy","lng":11.586691,"~unique-id~":"52"},{"lat":45.066757,"nome":"PROMOTORI TORINO","banca":"BPI","class":"it.iap.google.maps.geocoder.Filiale","indirizzo":"Via Giuseppe Luigi Lagrange 10, TORINO, TO, Italy","lng":7.683413,"~unique-id~":"53"},{"lat":45.663754,"nome":"PROMOTORI TREVISO","banca":"BPI","class":"it.iap.google.maps.geocoder.Filiale","indirizzo":"Via Avogari 2, TREVISO, TV, Italy","lng":12.243301,"~unique-id~":"54"},{"lat":45.815155,"nome":"PROMOTORI VARESE","banca":"BPI","class":"it.iap.google.maps.geocoder.Filiale","indirizzo":"Piazza Repubblica, VARESE, VA, Italy","lng":8.82801,"~unique-id~":"55"},{"lat":43.790615,"nome":"PROMOTORI VENTIMIGLIA","banca":"BPI","class":"it.iap.google.maps.geocoder.Filiale","indirizzo":"Via Ruffini 8, VENTIMIGLIA, IM, Italy","lng":7.609494,"~unique-id~":"56"},{"lat":45.43263,"nome":"PROMOTORI VERONA","banca":"BPI","class":"it.iap.google.maps.geocoder.Filiale","indirizzo":"Via Albere 20\/C, VERONA, VR, Italy","lng":10.975104,"~unique-id~":"57"},{"lat":43.8792,"nome":"PROMOTORI VIAREGGIO","banca":"BPI","class":"it.iap.google.maps.geocoder.Filiale","indirizzo":"Via Fratti 618, VIAREGGIO, LU, Italy","lng":10.243263,"~unique-id~":"58"},{"lat":42.65914,"nome":"PROMOTORI TERAMO","banca":"BPI","class":"it.iap.google.maps.geocoder.Filiale","indirizzo":"Via Forti 56, TERAMO, TE, Italy","lng":13.702003,"~unique-id~":"59"},{"lat":40.463036,"nome":"PROMOTORI TARANTO","banca":"BPI","class":"it.iap.google.maps.geocoder.Filiale","indirizzo":"Via Pisa 14, TARANTO, TA, Italy","lng":17.270857,"~unique-id~":"60"},{"lat":42.032394,"nome":"PROMOTORI AVEZZANO","banca":"BPI","class":"it.iap.google.maps.geocoder.Filiale","indirizzo":"Via Antonio Gramsci, AVEZZANO, AV, Italy","lng":13.427327,"~unique-id~":"61"},{"lat":45.46692,"nome":" MILANO","banca":"BPI","class":"it.iap.google.maps.geocoder.Filiale","indirizzo":"Corso Giacomo Matteotti 1, MILANO, MI, Italy","lng":9.194442,"~unique-id~":"62"}]}